{
"type": "FeatureCollection",
"name": "mukden_weichang_pt",
"crs": { "type": "name", "properties": { "name": "urn:ogc:def:crs:OGC:1.3:CRS84" } },
"features": [
{ "type": "Feature", "properties": { "Name": "alan arabun", "name_chf": "阿蘭阿拉本", "name_chj": "阿兰阿拉本", "종류": "演武圍", "karun": "大沙河卡倫", "memo": null }, "geometry": { "type": "Point", "coordinates": [ 125.646401853000043, 42.749093435000077 ] } },
{ "type": "Feature", "properties": { "Name": "alan jubki", "name_chf": "阿蘭朱卜啟", "name_chj": "阿兰朱卜启", "종류": "演武圍", "karun": "大沙河卡倫", "memo": null }, "geometry": { "type": "Point", "coordinates": [ 125.566890774000058, 42.824235237000039 ] } },
{ "type": "Feature", "properties": { "Name": "alan niyamxan", "name_chf": "阿蘭年木善", "name_chj": "阿兰年木善", "종류": "演武圍", "karun": "大沙河卡倫", "memo": null }, "geometry": { "type": "Point", "coordinates": [ 125.481402377000109, 42.866614389000077 ] } },
{ "type": "Feature", "properties": { "Name": "alan bakcin", "name_chf": "阿蘭巴克欽", "name_chj": "阿兰巴克钦", "종류": "演武圍", "karun": "大沙河卡倫", "memo": null }, "geometry": { "type": "Point", "coordinates": [ 125.516176063000088, 42.791935369000036 ] } },
{ "type": "Feature", "properties": { "Name": "alan beye", "name_chf": "阿蘭伯野", "name_chj": "阿兰伯野", "종류": "演武圍", "karun": "大沙河卡倫", "memo": null }, "geometry": { "type": "Point", "coordinates": [ 125.467600018000084, 42.746314702000063 ] } },
{ "type": "Feature", "properties": { "Name": "eyen", "name_chf": "額音\r\n", "name_chj": "额音", "종류": "演武圍", "karun": "大沙河卡倫", "memo": null }, "geometry": { "type": "Point", "coordinates": [ 125.53967840100006, 42.709453743000047 ] } },
{ "type": "Feature", "properties": { "Name": "alan da", "name_chf": "阿蘭達", "name_chj": "阿兰达", "종류": "演武圍", "karun": "大沙河卡倫", "memo": null }, "geometry": { "type": "Point", "coordinates": [ 125.370368518000092, 42.802163870000079 ] } },
{ "type": "Feature", "properties": { "Name": "amba leke", "name_chf": "阿木巴勒克", "name_chj": "阿木巴勒克", "종류": "王多羅樹圍", "karun": "大沙河卡倫", "memo": null }, "geometry": { "type": "Point", "coordinates": [ 125.666510086149856, 42.925629981528182 ] } },
{ "type": "Feature", "properties": { "Name": "jai leke", "name_chf": "齊勒克", "name_chj": "齐勒克", "종류": "王多羅樹圍", "karun": "大沙河卡倫", "memo": null }, "geometry": { "type": "Point", "coordinates": [ 125.619946035000112, 42.874036054000044 ] } },
{ "type": "Feature", "properties": { "Name": "ilaci leke", "name_chf": "依拉氣勒克", "name_chj": "依拉气勒克", "종류": "王多羅樹圍", "karun": "大沙河卡倫", "memo": null }, "geometry": { "type": "Point", "coordinates": [ 125.684124585000077, 42.798445167000068 ] } },
{ "type": "Feature", "properties": { "Name": "jakdan", "name_chf": "扎克丹", "name_chj": "扎克丹\r\n", "종류": "演武圍", "karun": "臺必拉卡倫", "memo": null }, "geometry": { "type": "Point", "coordinates": [ 124.375743087000032, 42.680491028000063 ] } },
{ "type": "Feature", "properties": { "Name": "tai hoihan", "name_chf": "台輝翰\r\n", "name_chj": "台辉翰", "종류": "演武圍", "karun": "臺必拉卡倫", "memo": null }, "geometry": { "type": "Point", "coordinates": [ 124.415104246000055, 42.617213152000026 ] } },
{ "type": "Feature", "properties": { "Name": "bolgo", "name_chf": "伯爾豁", "name_chj": "伯尔豁", "종류": "演武圍", "karun": "臺必拉卡倫", "memo": null }, "geometry": { "type": "Point", "coordinates": [ 124.472543030000111, 42.657302884000039 ] } },
{ "type": "Feature", "properties": { "Name": "lefu den", "name_chf": "勒夫得恩", "name_chj": "勒夫得恩", "종류": "演武圍", "karun": "臺必拉卡倫", "memo": null }, "geometry": { "type": "Point", "coordinates": [ 124.56780001300001, 42.702770946000044 ] } },
{ "type": "Feature", "properties": { "Name": "niohe", "name_chf": "妞合", "name_chj": "妞合", "종류": "演武圍", "karun": "臺必拉卡倫", "memo": null }, "geometry": { "type": "Point", "coordinates": [ 124.655929611000033, 42.702130537000073 ] } },
{ "type": "Feature", "properties": { "Name": "lefu dosihi", "name_chf": "勒夫都什西\r\n", "name_chj": "勒夫都什西\r\n", "종류": "演武圍", "karun": "臺必拉卡倫", "memo": null }, "geometry": { "type": "Point", "coordinates": [ 124.557993405000047, 42.655140522000067 ] } },
{ "type": "Feature", "properties": { "Name": "lefu jubki", "name_chf": "勒夫朱卜啟", "name_chj": "勒夫朱卜启", "종류": "演武圍", "karun": "臺必拉卡倫", "memo": null }, "geometry": { "type": "Point", "coordinates": [ 124.509355008000043, 42.594914701000043 ] } },
{ "type": "Feature", "properties": { "Name": "hasurgan sekiyen", "name_chf": "哈束力憨色欽", "name_chj": "哈束力憨色钦", "종류": "演武圍", "karun": "蒙古霍羅卡倫", "memo": null }, "geometry": { "type": "Point", "coordinates": [ 124.449125231000039, 42.743379800000064 ] } },
{ "type": "Feature", "properties": { "Name": "hasurgan", "name_chf": "哈束力憨\r\n", "name_chj": "哈束力憨", "종류": "演武圍", "karun": "蒙古霍羅卡倫", "memo": null }, "geometry": { "type": "Point", "coordinates": [ 124.561854367000024, 42.77201758700005 ] } },
{ "type": "Feature", "properties": { "Name": "hasurgan beye", "name_chf": "哈束力憨伯野", "name_chj": "哈束力憨伯野\r\n", "종류": "演武圍", "karun": "蒙古霍羅卡倫", "memo": null }, "geometry": { "type": "Point", "coordinates": [ 124.61922766400005, 42.823953684000053 ] } },
{ "type": "Feature", "properties": { "Name": "daki da", "name_chf": "達啟達", "name_chj": "达启达\r\n", "종류": "演武圍", "karun": "雙榆樹卡倫", "memo": null }, "geometry": { "type": "Point", "coordinates": [ 124.730222642000058, 42.852513072000079 ] } },
{ "type": "Feature", "properties": { "Name": "hasurgan da", "name_chf": "哈束力憨達", "name_chj": "哈束力憨达", "종류": "演武圍", "karun": "雙榆樹卡倫", "memo": null }, "geometry": { "type": "Point", "coordinates": [ 124.650441548000131, 42.878297053000047 ] } },
{ "type": "Feature", "properties": { "Name": "aisin niyamju", "name_chf": "艾辛年木州", "name_chj": "艾辛年木州", "종류": "演武圍", "karun": "雙榆樹卡倫", "memo": null }, "geometry": { "type": "Point", "coordinates": [ 124.8625, 42.920833333000076 ] } },
{ "type": "Feature", "properties": { "Name": "aisin beye", "name_chf": "艾辛伯野", "name_chj": "艾辛伯野", "종류": "演武圍", "karun": "雙榆樹卡倫", "memo": null }, "geometry": { "type": "Point", "coordinates": [ 124.738777810000101, 42.915198111000045 ] } },
{ "type": "Feature", "properties": { "Name": "daki", "name_chf": "達啟", "name_chj": "达启", "종류": "演武圍", "karun": "雙榆樹卡倫", "memo": null }, "geometry": { "type": "Point", "coordinates": [ 124.719121059000031, 42.803780389000075 ] } },
{ "type": "Feature", "properties": { "Name": "gengkai", "name_chf": "更刻", "name_chj": "更刻", "종류": "演武圍", "karun": "西巴拉河卡倫", "memo": null }, "geometry": { "type": "Point", "coordinates": [ 124.740349828000035, 42.680302214000058 ] } },
{ "type": "Feature", "properties": { "Name": "uli", "name_chf": "烏里", "name_chj": "乌里", "종류": "演武圍", "karun": "西巴拉河卡倫", "memo": null }, "geometry": { "type": "Point", "coordinates": [ 124.561451271, 42.555836994000074 ] } },
{ "type": "Feature", "properties": { "Name": "den gala", "name_chf": "登噶拉", "name_chj": "登噶拉", "종류": "演武圍", "karun": "西巴拉河卡倫", "memo": null }, "geometry": { "type": "Point", "coordinates": [ 124.798787860000061, 42.650359613000028 ] } },
{ "type": "Feature", "properties": { "Name": "xanyan hada", "name_chf": "山顔哈達", "name_chj": "山彦哈达", "종류": "演武圍", "karun": "西巴拉河卡倫", "memo": null }, "geometry": { "type": "Point", "coordinates": [ 124.911824940000088, 42.661952109000026 ] } },
{ "type": "Feature", "properties": { "Name": "lahvda", "name_chf": "拉呼達", "name_chj": "拉呼达", "종류": "演武圍", "karun": "西巴拉河卡倫", "memo": null }, "geometry": { "type": "Point", "coordinates": [ 124.686611805000112, 42.624632191000053 ] } },
{ "type": "Feature", "properties": { "Name": "guladzi", "name_chf": "古砬子\r\n", "name_chj": "古砬子", "종류": "演武圍", "karun": "西巴拉河卡倫", "memo": null }, "geometry": { "type": "Point", "coordinates": [ 124.744687156000055, 42.58858292900004 ] } },
{ "type": "Feature", "properties": { "Name": "den gala da", "name_chf": "登噶拉達", "name_chj": "登噶拉达", "종류": "演武圍", "karun": "西巴拉河卡倫", "memo": null }, "geometry": { "type": "Point", "coordinates": [ 124.814195206000022, 42.588511211000032 ] } },
{ "type": "Feature", "properties": { "Name": "xibadaobei", "name_chf": "十八道背", "name_chj": "十八道背", "종류": "演武圍", "karun": "西巴拉河卡倫", "memo": null }, "geometry": { "type": "Point", "coordinates": [ 124.638891796000067, 42.52202956100006 ] } },
{ "type": "Feature", "properties": { "Name": "xan cengdzi", "name_chf": "山城子", "name_chj": "山城子", "종류": "演武圍", "karun": "西巴拉河卡倫", "memo": null }, "geometry": { "type": "Point", "coordinates": [ 124.730011226000101, 42.509068310000032 ] } },
{ "type": "Feature", "properties": { "Name": "nao lin dzi", "name_chf": "鬧林子\r\n", "name_chj": "闹林子", "종류": "演武圍", "karun": "大荒溝卡倫", "memo": null }, "geometry": { "type": "Point", "coordinates": [ 125.087057721000065, 42.393480185000044 ] } },
{ "type": "Feature", "properties": { "Name": "yegibei", "name_chf": "野雞背", "name_chj": "野鸡背", "종류": "演武圍", "karun": "大荒溝卡倫", "memo": null }, "geometry": { "type": "Point", "coordinates": [ 124.914777185000034, 42.472031424000086 ] } },
{ "type": "Feature", "properties": { "Name": "ciyan xi ling", "name_chf": "嵌石嶺", "name_chj": "嵌石岭", "종류": "演武圍", "karun": "大荒溝卡倫", "memo": null }, "geometry": { "type": "Point", "coordinates": [ 124.947519639, 42.516673639000032 ] } },
{ "type": "Feature", "properties": { "Name": "narhvn", "name_chf": "那力渾", "name_chj": "那力浑\r\n", "종류": "演武圍", "karun": "大荒溝卡倫", "memo": null }, "geometry": { "type": "Point", "coordinates": [ 124.888281014000071, 42.619926988000032 ] } },
{ "type": "Feature", "properties": { "Name": "den gala bakcin", "name_chf": "登噶拉巴克欽", "name_chj": "登噶拉巴克钦", "종류": "演武圍", "karun": "大荒溝卡倫", "memo": null }, "geometry": { "type": "Point", "coordinates": [ 124.872589910000102, 42.559261681000059 ] } },
{ "type": "Feature", "properties": { "Name": "jakdan hada", "name_chf": "扎克丹哈達", "name_chj": "扎克丹哈达\r\n", "종류": "演武圍", "karun": "大荒溝卡倫", "memo": null }, "geometry": { "type": "Point", "coordinates": [ 124.840078495000057, 42.481048179000027 ] } },
{ "type": "Feature", "properties": { "Name": "jan sekiyen", "name_chf": "占色欽\r\n", "name_chj": "占色钦\r\n", "종류": "演武圍", "karun": "大荒溝卡倫", "memo": null }, "geometry": { "type": "Point", "coordinates": [ 125.07424657300011, 42.601856131000019 ] } },
{ "type": "Feature", "properties": { "Name": "fulha hada", "name_chf": "付力哈哈達", "name_chj": "付力哈哈达\r\n", "종류": "演武圍", "karun": "大荒溝卡倫", "memo": null }, "geometry": { "type": "Point", "coordinates": [ 125.130974698000031, 42.489902112000038 ] } },
{ "type": "Feature", "properties": { "Name": "xuru", "name_chf": "束魯", "name_chj": "束鲁", "종류": "演武圍", "karun": "大荒溝卡倫", "memo": null }, "geometry": { "type": "Point", "coordinates": [ 125.15384734700001, 42.428136769000048 ] } },
{ "type": "Feature", "properties": { "Name": "fulha sekiyen", "name_chf": "付力哈色欽", "name_chj": "付力哈色钦", "종류": "演武圍", "karun": "大荒溝卡倫", "memo": null }, "geometry": { "type": "Point", "coordinates": [ 125.149593992000064, 42.573583443000068 ] } },
{ "type": "Feature", "properties": { "Name": "hakxan", "name_chf": "哈克山\r\n", "name_chj": "哈克山", "종류": "演武圍", "karun": "大荒溝卡倫", "memo": null }, "geometry": { "type": "Point", "coordinates": [ 124.994723145000066, 42.568831100000075 ] } },
{ "type": "Feature", "properties": { "Name": "usu", "name_chf": "烏束\r\n", "name_chj": "乌束\r\n", "종류": "演武圍", "karun": "土口子卡倫", "memo": null }, "geometry": { "type": "Point", "coordinates": [ 125.217122210000085, 42.240232184000028 ] } },
{ "type": "Feature", "properties": { "Name": "bayangga", "name_chf": "巴楊河", "name_chj": "巴杨河", "종류": "演武圍", "karun": "土口子卡倫", "memo": null }, "geometry": { "type": "Point", "coordinates": [ 125.232519814000057, 42.376817841000033 ] } },
{ "type": "Feature", "properties": { "Name": "xan cengdzi", "name_chf": "山城子", "name_chj": "山城子", "종류": "鮮圍", "karun": "土口子卡倫", "memo": null }, "geometry": { "type": "Point", "coordinates": [ 125.337573484000032, 42.132624166000028 ] } },
{ "type": "Feature", "properties": { "Name": "liohexen buden", "name_chf": "柳河身卜敦", "name_chj": "柳河身卜敦\r\n", "종류": "鮮圍", "karun": "土口子卡倫", "memo": null }, "geometry": { "type": "Point", "coordinates": [ 125.441796521, 42.187583714000027 ] } },
{ "type": "Feature", "properties": { "Name": "liohexen beye", "name_chf": "柳河身伯野\r\n", "name_chj": "柳河身伯野\r\n", "종류": "鮮圍", "karun": "土口子卡倫", "memo": null }, "geometry": { "type": "Point", "coordinates": [ 125.528201558000092, 42.22375038600007 ] } },
{ "type": "Feature", "properties": { "Name": "narhvn", "name_chf": "那力渾", "name_chj": "那力浑", "종류": "鮮圍", "karun": "土口子卡倫", "memo": null }, "geometry": { "type": "Point", "coordinates": [ 125.69583333300011, 42.304166667000061 ] } },
{ "type": "Feature", "properties": { "Name": "girin hada", "name_chf": "吉林哈達\r\n", "name_chj": "吉林哈达\r\n", "종류": "鮮圍", "karun": "土口子卡倫", "memo": null }, "geometry": { "type": "Point", "coordinates": [ 125.602202709000039, 42.337263419000074 ] } },
{ "type": "Feature", "properties": { "Name": "nionio", "name_chf": "妞妞", "name_chj": "妞妞\r\n", "종류": "鮮圍", "karun": "土口子卡倫", "memo": null }, "geometry": { "type": "Point", "coordinates": [ 125.832225395000037, 42.303981193000027 ] } },
{ "type": "Feature", "properties": { "Name": "yaki", "name_chf": "牙啟", "name_chj": "牙启", "종류": "御圍", "karun": "土口子卡倫", "memo": null }, "geometry": { "type": "Point", "coordinates": [ 125.359879533000012, 42.41046070900007 ] } },
{ "type": "Feature", "properties": { "Name": "wehe tai", "name_chf": "倭合台", "name_chj": "倭合台\r\n", "종류": "御圍", "karun": "土口子卡倫", "memo": null }, "geometry": { "type": "Point", "coordinates": [ 125.275515139000049, 42.459597576000064 ] } },
{ "type": "Feature", "properties": { "Name": "niyamju", "name_chf": "年木州", "name_chj": "年木州", "종류": "御圍", "karun": "土口子卡倫", "memo": null }, "geometry": { "type": "Point", "coordinates": [ 125.301085348000015, 42.506429960000062 ] } },
{ "type": "Feature", "properties": { "Name": "bayan", "name_chf": "巴顔", "name_chj": "巴彦", "종류": "御圍", "karun": "土口子卡倫", "memo": null }, "geometry": { "type": "Point", "coordinates": [ 125.395918654000084, 42.474577509000021 ] } },
{ "type": "Feature", "properties": { "Name": "girin budun", "name_chf": "吉林卜敦\r\n", "name_chj": "吉林卜敦", "종류": "御圍", "karun": "土口子卡倫", "memo": null }, "geometry": { "type": "Point", "coordinates": [ 125.497798562000071, 42.302518543000076 ] } },
{ "type": "Feature", "properties": { "Name": "golmin judun", "name_chf": "果爾敏朱敦\r\n", "name_chj": "果尔敏朱敦", "종류": "御圍", "karun": "土口子卡倫", "memo": null }, "geometry": { "type": "Point", "coordinates": [ 125.33176532800006, 42.305372549000026 ] } },
{ "type": "Feature", "properties": { "Name": "hei juwei dzi", "name_chf": "黑嘴子\r\n", "name_chj": "黑嘴子\r\n", "종류": "演武圍", "karun": "梅河卡倫", "memo": null }, "geometry": { "type": "Point", "coordinates": [ 125.526970085000016, 42.464926546000079 ] } },
{ "type": "Feature", "properties": { "Name": "gvwasihiyan oforo", "name_chf": "古瓦什鮮額夫勒\r\n", "name_chj": "古瓦什鲜额夫勒", "종류": "演武圍", "karun": "梅河卡倫", "memo": null }, "geometry": { "type": "Point", "coordinates": [ 125.646204960000091, 42.557690904000033 ] } },
{ "type": "Feature", "properties": { "Name": "ajige fulha", "name_chf": "小付力哈", "name_chj": "小付力哈", "종류": "演武圍", "karun": "梅河卡倫", "memo": null }, "geometry": { "type": "Point", "coordinates": [ 125.488434271000074, 42.565729045000062 ] } },
{ "type": "Feature", "properties": { "Name": "dulinba fulha", "name_chf": "都林巴付力哈", "name_chj": "都林巴付力哈", "종류": "演武圍", "karun": "梅河卡倫", "memo": null }, "geometry": { "type": "Point", "coordinates": [ 125.289924979000048, 42.576955289000061 ] } },
{ "type": "Feature", "properties": { "Name": "amba fulha", "name_chf": "大付力哈", "name_chj": "大付力哈", "종류": "演武圍", "karun": "梅河卡倫", "memo": null }, "geometry": { "type": "Point", "coordinates": [ 125.188600013000027, 42.60603898800008 ] } },
{ "type": "Feature", "properties": { "Name": "fulha niyamxan", "name_chf": "付力哈年木善", "name_chj": "付力哈年木善", "종류": "演武圍", "karun": "梅河卡倫", "memo": null }, "geometry": { "type": "Point", "coordinates": [ 125.475536614, 42.644284150000047 ] } },
{ "type": "Feature", "properties": { "Name": "juru mangga", "name_chf": "朱魯莽卡\r\n", "name_chj": "朱鲁莽卡", "종류": "鮮圍", "karun": "梅河卡倫", "memo": null }, "geometry": { "type": "Point", "coordinates": [ 125.981743547000065, 42.628507028000051 ] } },
{ "type": "Feature", "properties": { "Name": "badan g'angdzi", "name_chf": "八旦崗子", "name_chj": "八旦岗子", "종류": "鮮圍", "karun": "梅河卡倫", "memo": null }, "geometry": { "type": "Point", "coordinates": [ 125.909129521000068, 42.59879582700006 ] } },
{ "type": "Feature", "properties": { "Name": "amba leke", "name_chf": "阿木巴勒克", "name_chj": "阿木巴勒克", "종류": "鮮圍", "karun": "梅河卡倫", "memo": null }, "geometry": { "type": "Point", "coordinates": [ 125.904166667000041, 42.420833333000076 ] } },
{ "type": "Feature", "properties": { "Name": "ajige leke", "name_chf": "阿幾個勒克", "name_chj": "阿几个勒克", "종류": "鮮圍", "karun": "梅河卡倫", "memo": null }, "geometry": { "type": "Point", "coordinates": [ 125.995833333000064, 42.454166667000045 ] } },
{ "type": "Feature", "properties": { "Name": "santun hoihan", "name_chf": "三通輝憨", "name_chj": "三通辉憨", "종류": "鮮圍", "karun": "梅河卡倫", "memo": null }, "geometry": { "type": "Point", "coordinates": [ 126.064413867000113, 42.560687727000072 ] } },
{ "type": "Feature", "properties": { "Name": "xanyan wehe", "name_chf": "山顔倭合", "name_chj": "山彦倭合", "종류": "御圍", "karun": "梅河卡倫", "memo": null }, "geometry": { "type": "Point", "coordinates": [ 125.569940767000034, 42.536211642000069 ] } },
{ "type": "Feature", "properties": { "Name": "guilehe dabagan", "name_chf": "歸勒哈達布憨\r\n", "name_chj": "归勒哈达布憨", "종류": "御圍", "karun": "梅河卡倫", "memo": null }, "geometry": { "type": "Point", "coordinates": [ 125.734074487000029, 42.427008016000066 ] } },
{ "type": "Feature", "properties": { "Name": "xeri", "name_chf": "舍力", "name_chj": "舍力", "종류": "御圍", "karun": "梅河卡倫", "memo": null }, "geometry": { "type": "Point", "coordinates": [ 125.627132351000114, 42.644517120000039 ] } },
{ "type": "Feature", "properties": { "Name": "calba", "name_chf": "查力巴", "name_chj": "查力巴", "종류": "御圍", "karun": "梅河卡倫", "memo": null }, "geometry": { "type": "Point", "coordinates": [ 125.658729748000027, 42.695958686000033 ] } },
{ "type": "Feature", "properties": { "Name": "abdara hvngkeo", "name_chf": "阿布達拉洪闊", "name_chj": "阿布达拉洪阔", "종류": "演武圍", "karun": "梅河卡倫", "memo": null }, "geometry": { "type": "Point", "coordinates": [ 125.737325383000098, 42.629452384000047 ] } },
{ "type": "Feature", "properties": { "Name": "cakvran", "name_chf": "查庫蘭\r\n", "name_chj": "查库兰", "종류": "演武圍", "karun": "克爾蘇卡倫", "memo": null }, "geometry": { "type": "Point", "coordinates": [ 124.833717389000071, 42.767468082000043 ] } },
{ "type": "Feature", "properties": { "Name": "cakvran da", "name_chf": "查庫蘭達\r\n", "name_chj": "查库兰达\r\n", "종류": "演武圍", "karun": "克爾蘇卡倫", "memo": null }, "geometry": { "type": "Point", "coordinates": [ 124.884980147000078, 42.838760521000047 ] } },
{ "type": "Feature", "properties": { "Name": "jujuhu", "name_chf": "朱朱胡\r\n", "name_chj": "朱朱胡", "종류": "演武圍", "karun": "克爾蘇卡倫", "memo": null }, "geometry": { "type": "Point", "coordinates": [ 124.935872159000056, 42.88875203300006 ] } },
{ "type": "Feature", "properties": { "Name": "hiyan dabagan", "name_chf": "鮮達卜憨", "name_chj": "鲜达卜憨", "종류": "演武圍", "karun": "克爾蘇卡倫", "memo": null }, "geometry": { "type": "Point", "coordinates": [ 125.098518951000074, 42.761139243000045 ] } },
{ "type": "Feature", "properties": { "Name": "uluri", "name_chf": "烏魯里", "name_chj": "乌鲁里", "종류": "演武圍", "karun": "克爾蘇卡倫", "memo": null }, "geometry": { "type": "Point", "coordinates": [ 124.936907698000027, 42.817745991000052 ] } },
{ "type": "Feature", "properties": { "Name": "uluri budun", "name_chf": "烏魯里卜敦", "name_chj": "乌鲁里卜敦", "종류": "演武圍", "karun": "克爾蘇卡倫", "memo": null }, "geometry": { "type": "Point", "coordinates": [ 125.045080016000043, 42.872862339000058 ] } },
{ "type": "Feature", "properties": { "Name": "imahv", "name_chf": "依馬呼", "name_chj": "依马呼", "종류": "演武圍", "karun": "克爾蘇卡倫", "memo": null }, "geometry": { "type": "Point", "coordinates": [ 124.845833333000087, 42.7125 ] } },
{ "type": "Feature", "properties": { "Name": "imahv hada", "name_chf": "依馬呼哈達", "name_chj": "依马呼哈达", "종류": "演武圍", "karun": "克爾蘇卡倫", "memo": null }, "geometry": { "type": "Point", "coordinates": [ 124.974271148000071, 42.742779034000066 ] } },
{ "type": "Feature", "properties": { "Name": "xanyan hada", "name_chf": "山顔哈達", "name_chj": "山彦哈达", "종류": "王多羅樹圍", "karun": "克爾蘇卡倫", "memo": null }, "geometry": { "type": "Point", "coordinates": [ 124.790881224000017, 42.996766315000052 ] } },
{ "type": "Feature", "properties": { "Name": "ulgiyan hada", "name_chf": "烏爾尖哈達", "name_chj": "乌尔尖哈达\r\n", "종류": "王多羅樹圍", "karun": "克爾蘇卡倫", "memo": null }, "geometry": { "type": "Point", "coordinates": [ 124.923824590000095, 43.023323225000077 ] } },
{ "type": "Feature", "properties": { "Name": "iba kaba", "name_chf": "依巴卡巴", "name_chj": "依巴卡巴", "종류": "演武圍", "karun": "歸勒哈卡倫", "memo": null }, "geometry": { "type": "Point", "coordinates": [ 125.257596795000055, 42.871031115000058 ] } },
{ "type": "Feature", "properties": { "Name": "fukjin", "name_chf": "夫克錦", "name_chj": "夫克锦", "종류": "演武圍", "karun": "歸勒哈卡倫", "memo": null }, "geometry": { "type": "Point", "coordinates": [ 125.332420376000073, 42.869600446000057 ] } },
{ "type": "Feature", "properties": { "Name": "jalafun alin", "name_chf": "扎拉芬\r\n", "name_chj": "扎拉芬\r\n", "종류": "演武圍", "karun": "歸勒哈卡倫", "memo": null }, "geometry": { "type": "Point", "coordinates": [ 125.170833333000019, 42.879166667000057 ] } },
{ "type": "Feature", "properties": { "Name": "ajige bayan", "name_chf": "小巴彥", "name_chj": "小巴彦", "종류": "演武圍", "karun": "歸勒哈卡倫", "memo": null }, "geometry": { "type": "Point", "coordinates": [ 125.075672499, 42.691994566000069 ] } },
{ "type": "Feature", "properties": { "Name": "ajige weidun", "name_chf": "小韋軍", "name_chj": "小韦军", "종류": "演武圍", "karun": "歸勒哈卡倫", "memo": null }, "geometry": { "type": "Point", "coordinates": [ 125.209005958000049, 42.780869538000047 ] } },
{ "type": "Feature", "properties": { "Name": "amba bayan", "name_chf": "大巴顔", "name_chj": "大巴彦", "종류": "演武圍", "karun": "歸勒哈卡倫", "memo": null }, "geometry": { "type": "Point", "coordinates": [ 125.156045589000087, 42.685747653000078 ] } },
{ "type": "Feature", "properties": { "Name": "weidun mulu", "name_chf": "韋軍木魯", "name_chj": "韦军木鲁", "종류": "演武圍", "karun": "歸勒哈卡倫", "memo": null }, "geometry": { "type": "Point", "coordinates": [ 125.208195878000097, 42.720129069000045 ] } },
{ "type": "Feature", "properties": { "Name": "ilan muhaliyan", "name_chf": "依蘭木哈連\r\n", "name_chj": "依兰木哈连\r\n", "종류": "王多羅樹圍", "karun": "歸勒哈卡倫", "memo": null }, "geometry": { "type": "Point", "coordinates": [ 125.07240982200004, 42.96315909600002 ] } },
{ "type": "Feature", "properties": { "Name": "guilehe hada", "name_chf": "歸勒合哈達\r\n", "name_chj": "归勒合哈达\r\n", "종류": "王多羅樹圍", "karun": "歸勒哈卡倫", "memo": null }, "geometry": { "type": "Point", "coordinates": [ 125.152934039000115, 43.11093985400003 ] } },
{ "type": "Feature", "properties": { "Name": "kalfiyan", "name_chf": "卡爾非音", "name_chj": "卡尔非音\r\n", "종류": "王多羅樹圍", "karun": "孤山河卡倫", "memo": null }, "geometry": { "type": "Point", "coordinates": [ 125.236603616000025, 43.180070114000046 ] } },
{ "type": "Feature", "properties": { "Name": "gu ceng", "name_chf": "古城\r\n", "name_chj": "古城\r\n", "종류": "王多羅樹圍", "karun": "孤山河卡倫", "memo": null }, "geometry": { "type": "Point", "coordinates": [ 125.273565341000108, 42.988823449000051 ] } },
{ "type": "Feature", "properties": { "Name": "hoifa", "name_chf": "輝發", "name_chj": "辉发", "종류": "鮮圍", "karun": "那丹伯卡倫", "memo": null }, "geometry": { "type": "Point", "coordinates": [ 126.079757088000065, 42.725134378000064 ] } },
{ "type": "Feature", "properties": { "Name": "bulxan", "name_chf": "卜爾善", "name_chj": "卜尔善", "종류": "鮮圍", "karun": "那丹伯卡倫", "memo": null }, "geometry": { "type": "Point", "coordinates": [ 125.880436175000128, 42.785792918000041 ] } },
{ "type": "Feature", "properties": { "Name": "jarkilan", "name_chf": "扎爾啟蘭", "name_chj": "扎尔启兰", "종류": "鮮圍", "karun": "那丹伯卡倫", "memo": null }, "geometry": { "type": "Point", "coordinates": [ 125.967012974000099, 42.733498484000044 ] } },
{ "type": "Feature", "properties": { "Name": "orin giyamun", "name_chf": "額林加們", "name_chj": "额林加们\r\n", "종류": "御圍", "karun": "那丹伯卡倫", "memo": null }, "geometry": { "type": "Point", "coordinates": [ 126.169166262000104, 42.756643989000047 ] } },
{ "type": "Feature", "properties": { "Name": "ajige sehere", "name_chf": "阿幾個色合勒", "name_chj": "阿几个色合勒", "종류": "王多羅樹圍", "karun": "那丹伯卡倫", "memo": null }, "geometry": { "type": "Point", "coordinates": [ 125.370220602000018, 43.09303311200005 ] } },
{ "type": "Feature", "properties": { "Name": "amba sehere", "name_chf": "阿木巴色合勒", "name_chj": "阿木巴色合勒", "종류": "王多羅樹圍", "karun": "那丹伯卡倫", "memo": null }, "geometry": { "type": "Point", "coordinates": [ 125.458366698000091, 43.031861546000087 ] } },
{ "type": "Feature", "properties": { "Name": "amba weidun", "name_chf": "大韋軍", "name_chj": "大韦军", "종류": "演武圍", "karun": "孤山河卡倫", "memo": null }, "geometry": { "type": "Point", "coordinates": [ 125.287018897000067, 42.690079897000039 ] } },
{ "type": "Feature", "properties": { "Name": "eyen mulu", "name_chf": "額音木魯", "name_chj": "额音木鲁", "종류": "演武圍", "karun": "孤山河卡倫", "memo": null }, "geometry": { "type": "Point", "coordinates": [ 125.371606747000115, 42.704785367000049 ] } },
{ "type": "Feature", "properties": { "Name": "usiha", "name_chf": "烏什哈", "name_chj": "乌什哈", "종류": "演武圍", "karun": "孤山河卡倫", "memo": null }, "geometry": { "type": "Point", "coordinates": [ 125.313421493000078, 42.754800748000051 ] } }
]
}
